     2.11           OBSERVATION DATA    Mixed(MIXED)        RINEX VERSION / TYPE
cnvtToRINEX 3.05.0  convertToRINEX OPR  28-May-19 09:54 UTC PGM / RUN BY / DATE 
----------------------------------------------------------- COMMENT             
2                                                           MARKER NAME         
                                                            MARKER NUMBER       
GNSS Observer       Trimble                                 OBSERVER / AGENCY   
5352450946          TRIMBLE R4-3        5.01                REC # / TYPE / VERS 
52450946            TRMR4-3         NONE                    ANT # / TYPE        
  -453459.8703  4588915.3014  4392355.9473                  APPROX POSITION XYZ 
        1.1191        0.0000        0.0000                  ANTENNA: DELTA H/E/N
     1     1     0                                          WAVELENGTH FACT L1/2
     5    C1    C2    L1    L2    P2                        # / TYPES OF OBSERV 
    30.000                                                  INTERVAL            
  2019     5    14    14    14    0.0000000     GPS         TIME OF FIRST OBS   
  2019     5    14    17    56    0.0000000     GPS         TIME OF LAST OBS    
     0                                                      RCV CLOCK OFFS APPL 
    18                                                      LEAP SECONDS        
    22                                                      # OF SATELLITES     
   G02   147     0   147   147   147                        PRN / # OF OBS      
   G05   266   266   266   532   266                        PRN / # OF OBS      
   G10   170   170   170   340   170                        PRN / # OF OBS      
   G13   420     0   420   420   420                        PRN / # OF OBS      
   G15   445   445   445   890   445                        PRN / # OF OBS      
   G20   299     0   299   299   299                        PRN / # OF OBS      
   G21   437     0   437   437   437                        PRN / # OF OBS      
   G24   180   180   180   360   180                        PRN / # OF OBS      
   G27   133   133   133   266   133                        PRN / # OF OBS      
   G29   311   311   311   622   311                        PRN / # OF OBS      
   R01   297   297   297   594   297                        PRN / # OF OBS      
   R02   445   445   445   890   445                        PRN / # OF OBS      
   R03   275   275   275   550   275                        PRN / # OF OBS      
   R04    17    17    17    34    17                        PRN / # OF OBS      
   R08   103   103   103   206   103                        PRN / # OF OBS      
   R11   132   132   132   264   132                        PRN / # OF OBS      
   R12   107     0   107     0     0                        PRN / # OF OBS      
   R17   445   445   445   890   445                        PRN / # OF OBS      
   R18   292   292   292   584   292                        PRN / # OF OBS      
   R19    97    97    97   194    97                        PRN / # OF OBS      
   R23   146   146   146   292   146                        PRN / # OF OBS      
   R24   316   316   316   632   316                        PRN / # OF OBS      
CARRIER PHASE MEASUREMENTS: PHASE SHIFTS REMOVED            COMMENT             
                                                            END OF HEADER       
 19  5 14 14 14  0.0000000  0 11G02G05G13G15G29R01R02R08R17R23R24   
  22158962.523 6                 116446131.83816  90737227.41358  22158957.63348
  20441003.648 7  20441001.688 9 107418197.16917  83702481.01919  20441001.23049
  22189604.102 6                 116607161.92216  90862712.03557  22189601.63747
  23374327.266 6  23374325.793 9 122832916.97816  95713955.84319  23374325.45347
  20500408.938 7  20500406.410 9 107730372.27917  83945735.71119  20500405.91849
  19122973.781 7  19122973.945 9 102223250.41817  79506978.03019  19122975.793 9
  21979344.281 7  21979344.492 9 117285995.68117  91222446.40119  21979345.316 9
  21039892.172 7  21039889.484 9 112667668.57217  87630408.92719  21039890.508 9
  21945881.180 7  21945881.094 9 117436846.65217  91339774.95319  21945881.672 9
  20270770.344 8  20270771.980 9 108435059.41018  84338298.71419  20270773.348 9
  19351357.813 7  19351356.199 8 103480507.04017  80484764.39818  19351356.055 8
 19  5 14 14 14 30.0000000  0 11G02G05G13G15G29R01R02R08R17R23R24   
  22166125.945 6                 116483772.999 6  90766558.14648  22166120.79348
  20445976.719 7  20445974.910 9 107444331.398 7  83722845.353 9  20445974.31649
  22170243.281 6                 116505420.212 6  90783432.82147  22170241.10247
  23349218.742 6  23349217.324 9 122700968.712 6  95611139.007 9  23349216.91847
  20493274.883 7  20493272.750 9 107692883.603 7  83916523.763 9  20493272.30549
  19119564.172 7  19119564.063 9 102205022.684 7  79492800.901 9  19119565.582 9
  21954112.398 7  21954112.070 9 117151351.168 7  91117722.920 9  21954113.113 9
  21054704.625 6  21054700.996 9 112746983.093 6  87692098.031 9  21054702.344 9
  21922124.211 7  21922123.559 9 117309715.717 7  91240895.349 9  21922124.145 9
  20280612.391 8  20280612.699 9 108487705.513 8  84379245.662 9  20280614.281 9
  19342180.086 7  19342177.461 8 103431428.298 7  80446592.046 8  19342178.398 8
 19  5 14 14 15  0.0000000  0 11G02G05G13G15G29R01R02R08R17R23R24   
  22173367.930 6                 116521829.711 6  90796212.72748  22173362.75448
  20451057.555 7  20451055.160 9 107471030.373 7  83743649.746 9  20451054.80949
  22150989.500 6                 116404238.043 6  90704589.60047  22150986.75847
  23324171.961 6  23324171.410 9 122569351.231 6  95508579.896 9  23324171.11747
  20486285.680 7  20486283.492 9 107656154.997 7  83887904.062 9  20486283.03549
  19116325.250 7  19116325.063 9 102187711.131 7  79479336.376 9  19116327.059 9
  21928975.711 7  21928975.875 9 117017213.147 7  91013393.357 9  21928976.172 9
  21069624.508 7  21069621.953 9 112826876.070 7  87754236.988 9  21069622.469 9
  21898427.672 7  21898426.824 9 117182909.774 7  91142268.538 9  21898427.609 9
  20290582.820 8  20290583.820 9 108541043.392 8  84420730.638 9  20290585.836 9
  19333140.336 7  19333138.996 8 103383092.690 7  80408997.685 8  19333139.313 8
 19  5 14 14 15 30.0000000  0 11G02G05G13G15G29R01R02R08R17R23R24   
  22180681.094 6                 116560263.237 6  90826160.90748  22180676.54348
  20456238.086 7  20456235.641 9 107498253.555 7  83764862.610 9  20456235.45349
  22131834.141 6                 116303579.510 6  90626154.38947  22131832.58247
  23299182.859 6  23299181.430 9 122438028.575 6  95406250.565 9  23299181.03947
  20479434.000 7  20479431.773 9 107620148.672 7  83859847.191 9  20479431.46149
  19113251.234 7  19113251.145 9 102171275.151 7  79466552.846 9  19113252.426 9
  21903926.070 7  21903925.504 9 116883544.646 7  90909429.028 9  21903926.848 9
  21084643.258 7  21084640.406 9 112907304.655 7  87816792.552 9  21084641.363 9
  21874784.680 7  21874784.496 9 117056392.402 7  91043866.129 9  21874785.227 9
  20300676.031 8  20300676.969 9 108595032.808 8  84462722.406 9  20300678.941 9
  19324233.602 7  19324232.496 8 103335463.254 7  80371952.564 8  19324233.078 8
 19  5 14 14 16  0.0000000  0 11G02G05G13G15G29R01R02R08R17R23R24   
  22188063.563 7                 116599056.290 7  90856389.24248  22188058.62148
  20461514.797 7  20461512.344 9 107525982.108 7  83786469.274 9  20461512.16449
  22112776.320 6                 116203430.263 6  90548116.04847  22112774.30147
  23274245.211 6  23274244.957 9 122306986.308 6  95304139.709 9  23274244.88747
  20472716.672 7  20472714.020 9 107584848.954 7  83832340.920 9  20472713.78949
  19110336.711 7  19110336.461 9 102155696.206 7  79454435.897 9  19110338.391 9
  21878961.828 7  21878961.367 9 116750331.378 7  90805818.742 9  21878962.086 9
  21099758.438 7  21099755.848 9 112988247.018 7  87879747.727 9  21099756.793 9
  21851193.141 7  21851192.484 9 116930148.545 7  90945676.509 9  21851193.305 9
  20310887.055 8  20310887.742 9 108649655.276 8  84505206.525 9  20310889.293 9
  19315456.398 7  19315454.492 8 103288524.625 7  80335444.741 8  19315454.805 8
 19  5 14 14 16 30.0000000  0 11G02G05G13G15G29R01R02R08R17R23R24   
  22195509.281 6                 116638184.578 6  90886878.79548  22195505.28148
  20466882.328 7  20466879.738 9 107554190.062 7  83808449.502 9  20466879.46948
  22093811.813 6                 116103769.293 6  90470458.18047  22093809.98447
  23249358.680 6  23249357.867 9 122176203.255 6  95202230.855 9  23249357.35247
  20466129.266 7  20466127.355 9 107550232.558 7  83805367.104 9  20466126.98049
  19107578.000 7  19107577.781 9 102140948.372 7  79442965.366 9  19107579.859 9
  21854078.797 7  21854078.707 9 116617550.754 7  90702544.956 9  21854079.520 9
  21114964.945 7  21114961.262 9 113069674.994 7  87943080.588 9  21114962.469 9
  21827648.406 7  21827647.949 9 116804156.841 7  90847682.983 9  21827648.395 9
  20321211.555 8  20321212.293 9 108704885.255 8  84548163.157 9  20321213.758 9
  19306803.172 7  19306801.438 8 103242254.639 7  80299456.973 8  19306801.988 8
 19  5 14 14 17  0.0000000  0 11G02G05G13G15G29R01R02R08R17R23R24   
  22203018.844 6                 116677647.759 6  90917629.31248  22203014.42648
  20472340.555 7  20472338.230 9 107582874.643 7  83830801.125 9  20472337.80149
  22074940.336 6                 116004598.538 6  90393182.28547  22074938.24647
  23224521.063 6  23224520.410 9 122045681.506 6  95100525.597 9  23224520.18047
  20459672.469 7  20459670.207 9 107516300.178 7  83778926.287 9  20459669.84049
  19104973.867 7  19104973.961 9 102127029.817 7  79432139.834 9  19104975.684 9
  21829277.164 7  21829277.344 9 116485205.750 7  90599609.975 9  21829277.996 9
  21130260.227 7  21130257.918 9 113151583.883 7  88006787.497 9  21130258.652 9
  21804151.109 7  21804150.652 9 116678419.173 7  90749887.041 9  21804151.512 9
  20331649.844 8  20331649.906 9 108760721.011 8  84591590.941 9  20331651.871 9
  19298276.469 7  19298274.559 8 103196654.610 7  80263990.284 8  19298274.727 8
 19  5 14 14 17 30.0000000  0 11G02G05G13G15G29R01R02R08R17R23R24   
  22210588.820 6                 116717427.820 6  90948626.73848  22210584.65648
  20477886.234 7  20477883.789 9 107612016.383 7  83853508.969 9  20477883.57448
  22056158.805 6                 115905903.046 6  90316276.74047  22056157.15247
  23199731.617 6  23199729.895 9 121915406.122 6  94999012.332 9  23199729.26247
  20453342.086 7  20453339.770 9 107483034.751 7  83753005.172 9  20453339.44949
  19102521.930 7  19102521.160 9 102113921.019 7  79421944.113 9  19102523.402 9
  21804554.375 7  21804553.578 9 116353280.067 7  90497001.154 9  21804554.520 9
  21145642.141 6  21145638.996 9 113233951.869 6  88070851.483 9  21145639.715 9
  21780699.250 7  21780697.840 9 116552920.128 7  90652276.694 9  21780698.980 9
  20342197.031 8  20342197.355 9 108817143.646 8  84635475.191 9  20342199.477 9
  19289871.328 7  19289869.930 8 103151709.104 7  80229032.670 8  19289869.980 8
 19  5 14 14 18  0.0000000  0 12G02G05G13G15G21G29R01R02R08R17R23R24
  22218216.156 6                 116757508.455 6  90979858.38948  22218211.46148
  20483515.367 7  20483512.723 9 107641597.282 7  83876559.017 9  20483512.44548
  22037465.305 6                 115807669.691 6  90239731.28347  22037463.96547
  23174984.367 6  23174983.215 9 121785363.587 6  94897680.508 9  23174982.88347
  24584046.844 2                 129190034.24912 100667548.89155  24584044.07045
  20447135.773 7  20447134.035 9 107450421.333 7  83727592.111 9  20447133.74249
  19100217.516 7  19100217.555 9 102101604.445 7  79412364.563 9  19100219.066 9
  21779908.344 7  21779907.578 9 116221760.442 7  90394708.156 9  21779908.219 9
  21161105.578 6  21161103.297 9 113316758.829 6  88135256.893 9  21161104.094 9
  21757289.313 7  21757287.926 9 116427646.519 7  90554841.686 9  21757288.910 9
  20352850.797 8  20352852.418 9 108874135.207 8  84679801.952 9  20352853.996 9
  19281585.078 7  19281583.992 8 103107403.624 7  80194572.849 8  19281584.148 8
 19  5 14 14 18 30.0000000  0 12G02G05G13G15G21G29R01R02R08R17R23R24
  22225900.156 6                 116797889.127 6  91011323.82048  22225895.64148
  20489227.391 7  20489225.262 9 107671615.412 7  83899949.771 9  20489224.78948
  22018861.367 6                 115709901.066 6  90163547.97747  22018858.94147
  23150283.547 6  23150282.199 9 121655556.870 6  94796532.443 9  23150281.39547
  24566312.844 1                 129096845.176 1 100594934.08345  24566310.78545
  20441053.820 7  20441051.934 9 107418460.951 7  83702687.919 9  20441051.68049
  19098060.938 7  19098060.836 9 102090078.517 7  79403399.964 9  19098062.578 9
  21755336.727 7  21755336.609 9 116090649.274 7  90292732.822 9  21755337.234 9
  21176649.969 6  21176648.125 9 113400000.396 6  88200000.326 9  21176648.887 9
  21733920.906 7  21733920.246 9 116302600.822 7  90457583.943 9  21733920.559 9
  20363611.539 8  20363612.266 9 108931694.658 8  84724570.398 9  20363613.980 9
  19273419.953 7  19273419.008 8 103063740.438 7  80160612.598 8  19273419.402 8
 19  5 14 14 19  0.0000000  0 12G02G05G13G15G21G29R01R02R08R17R23R24
  22233640.109 6                 116838563.765 6  91043018.33848  22233635.72748
  20495021.227 7  20495018.781 9 107702062.492 7  83923674.767 9  20495018.44548
  22000344.000 6                 115612593.116 6  90087723.62047  22000341.56347
  23125625.750 6  23125624.605 9 121525982.034 6  94695565.064 9  23125624.30147
  24548593.836 1                 129003725.812 1 100522373.55545  24548591.23445
  20435095.195 7  20435093.070 9 107387147.733 7  83678288.011 9  20435092.84849
  19096051.531 7  19096051.434 9 102079334.833 7  79395043.780 9  19096052.762 9
  21730842.156 7  21730842.313 9 115959942.128 7  90191071.761 9  21730842.680 9
  21192273.898 6  21192272.012 9 113483666.123 6  88265073.671 9  21192273.008 9
  21710595.430 7  21710594.500 9 116177779.151 7  90360500.452 9  21710595.168 9
  20374475.945 8  20374477.340 9 108989814.124 8  84769774.412 9  20374478.980 9
  19265374.227 7  19265372.609 8 103020714.688 7  80127148.126 8  19265372.949 8
 19  5 14 14 19 30.0000000  0 12G02G05G13G15G21G29R01R02R08R17R23R24
  22241436.055 6                 116879531.187 6  91074940.99248  22241431.44148
  20500896.023 7  20500893.762 9 107732935.522 7  83947731.670 9  20500893.57448
  21981915.500 6                 115515748.047 6  90012259.95347  21981913.20747
  23101012.430 6  23101011.539 9 121396641.306 6  94594780.111 9  23101011.52047
  24530886.445 2                 128910675.756 2 100449867.06345  24530884.19545
  20429259.625 7  20429257.914 9 107356481.995 7  83654392.628 9  20429257.39849
  19094186.906 7  19094186.820 9 102069371.196 7  79387294.285 9  19094188.805 9
  21706425.148 7  21706423.992 9 115829641.105 7  90089726.551 9  21706424.684 9
  21207976.719 6  21207974.602 9 113567751.750 6  88330473.598 9  21207975.379 9
  21687311.203 7  21687310.059 9 116053183.552 7  90263592.789 9  21687310.805 9
  20385444.961 8  20385446.004 9 109048491.727 8  84815412.533 9  20385447.988 9
  19257447.406 7  19257446.238 8 102978327.946 7  80094180.662 8  19257446.387 8
 19  5 14 14 20  0.0000000  0 12G02G05G13G15G21G29R01R02R08R17R23R24
  22249284.906 6                 116920777.990 6  91107081.34448  22249281.00448
  20506849.445 7  20506846.984 9 107764218.886 7  83972108.314 9  20506846.60248
  21963572.313 6                 115419354.948 6  89937148.46947  21963570.03547
  23076442.172 5  23076440.934 9 121267523.674 5  94494169.010 9  23076440.74247
  24513190.336 1                 128817681.97511 100377404.36955  24513187.88745
  20423545.109 7  20423542.859 9 107326450.838 7  83630991.724 9  20423542.67649
  19092466.734 7  19092466.871 9 102060172.390 7  79380139.664 9  19092468.551 9
  21682079.602 7  21682079.246 9 115699734.735 7  89988688.320 9  21682080.293 9
  21223753.539 6  21223751.938 9 113652239.463 6  88396186.270 9  21223752.605 9
  21664067.500 7  21664067.305 9 115928803.096 7  90166852.457 9  21664067.738 9
  20396515.711 8  20396516.371 9 109107712.140 8  84861472.841 9  20396518.180 9
  19249638.602 7  19249637.574 8 102936568.418 7  80061701.034 8  19249637.438 8
 19  5 14 14 20 30.0000000  0 12G02G05G13G15G21G29R01R02R08R17R23R24
  22257187.023 6                 116962303.531 6  91139438.88448  22257182.75448
  20512879.797 7  20512877.891 9 107795911.032 7  83996803.494 9  20512877.27748
  21945315.719 6                 115323416.576 6  89862391.31648  21945313.14148
  23051915.656 6  23051914.227 9 121138632.053 6  94393734.026 9  23051913.80547
  24495505.281 1                 128724745.071 1 100304986.07245  24495502.20745
  20417951.328 7  20417949.496 9 107297055.425 7  83608086.211 9  20417949.12949
  19090888.805 7  19090888.891 9 102051736.912 7  79373578.745 9  19090890.531 9
  21657810.844 7  21657809.363 9 115570225.800 7  89887959.193 9  21657810.426 9
  21239605.898 7  21239603.465 9 113737125.333 7  88462208.603 9  21239604.301 9
  21640864.859 7  21640864.238 9 115804640.790 7  90070281.811 9  21640864.969 9
  20407687.414 8  20407689.266 9 109167474.569 8  84907954.718 9  20407690.637 9
  19241946.086 7  19241945.371 8 102895438.569 7  80029711.154 8  19241945.676 8
 19  5 14 14 21  0.0000000  0 12G02G05G13G15G21G29R01R02R08R17R23R24
  22265141.234 6                 117004105.397 6  91172011.76348  22265137.32048
  20518988.016 7  20518986.031 9 107828007.581 7  84021813.788 9  20518985.52349
  21927146.445 6                 115227933.485 6  89787988.92148  21927143.43848
  23027431.352 6  23027429.410 9 121009966.588 6  94293475.253 9  23027429.00047
  24477829.852 2                 128631863.276 2 100232610.73345  24477827.97345
  20412478.414 7  20412476.379 9 107268294.077 7  83585674.774 9  20412476.08249
  19089453.117 7  19089452.805 9 102044060.816 7  79367608.452 9  19089454.449 9
  21633614.828 6  21633614.348 9 115441114.481 6  89787539.341 9  21633615.137 9
  21255530.602 6  21255529.168 9 113822403.299 6  88528535.917 9  21255529.742 9
  21617704.070 7  21617702.387 9 115680696.963 7  89973881.078 9  21617703.617 9
  20418960.523 8  20418962.137 9 109227775.270 8  84954855.241 9  20418963.520 9
  19234373.539 7  19234371.168 8 102854937.804 7  79998210.563 8  19234372.367 8
 19  5 14 14 21 30.0000000  0 12G02G05G13G15G21G29R01R02R08R17R23R24
  22273147.992 6                 117046180.282 6  91204797.35948  22273144.19148
  20525171.742 7  20525169.586 9 107860503.078 7  84047134.941 9  20525169.11348
  21909062.727 6                 115132904.633 6  89713940.48747  21909060.41047
  23002989.750 6  23002988.195 9 120881526.997 6  94193392.484 9  23002987.97347
  24460165.773 2                 128539033.218 2 100160275.63145  24460162.70745
  20407125.445 7  20407123.145 9 107240164.368 7  83563755.524 9  20407122.82449
  19088157.688 7  19088157.617 9 102037138.813 7  79362224.686 9  19088159.746 9
  21609492.750 7  21609493.129 9 115312399.084 7  89687427.408 9  21609494.078 9
  21271527.148 6  21271525.488 9 113908065.899 6  88595162.387 9  21271526.383 9
  21594581.953 7  21594581.344 9 115556970.938 7  89877649.750 9  21594581.926 9
  20430332.656 8  20430333.379 9 109288609.321 8  85002170.590 9  20430335.141 9
  19226916.492 7  19226914.574 8 102815064.791 7  79967198.221 8  19226915.188 8
 19  5 14 14 22  0.0000000  0 12G02G05G13G15G21G29R01R02R08R17R23R24
  22281207.172 6                 117088532.584 6  91237799.13448  22281203.43048
  20531431.688 7  20531429.512 9 107893400.205 7  84072769.064 9  20531429.34848
  21891066.867 6                 115038337.100 6  89640251.51548  21891064.34048
  22978593.086 6  22978591.258 9 120753320.351 6  94093491.232 9  22978591.47747
  24442510.977 3                 128446259.189 3 100087984.19845  24442507.84845
  20401893.406 7  20401891.332 9 107212671.387 7  83542332.416 9  20401891.21549
  19087004.547 7  19087004.020 9 102030973.789 7  79357429.670 9  19087005.922 9
  21585448.242 7  21585447.695 9 115184087.259 7  89587629.359 9  21585448.465 9
  21287596.258 6  21287594.547 9 113994113.555 6  88662088.340 9  21287595.594 9
  21571502.344 7  21571501.738 9 115433470.456 7  89781593.852 9  21571502.559 9
  20441805.000 8  20441806.293 9 109349980.133 8  85049903.424 9  20441807.672 9
  19219578.930 7  19219577.293 8 102775825.799 7  79936679.015 8  19219577.445 8
 19  5 14 14 22 30.0000000  0 12G02G05G13G15G21G29R01R02R08R17R23R24
  22289317.133 6                 117131149.319 6  91271006.96048  22289313.15248
  20537766.109 7  20537763.578 9 107926684.391 7  84098704.786 9  20537763.18049
  21873157.016 6                 114944221.722 6  89566914.88247  21873155.23447
  22954239.109 6  22954236.770 9 120625336.533 6  93993763.613 9  22954236.58647
  24424865.758 2                 128353529.176 2 100015727.09245  24424862.59045
  20396780.445 7  20396778.270 9 107185803.725 7  83521396.583 9  20396778.09849
  19085990.516 7  19085990.184 9 102025551.538 7  79353212.372 9  19085992.008 9
  21561476.133 7  21561476.328 9 115056169.088 7  89488137.486 9  21561477.043 9
  21303734.586 6  21303732.895 9 114080530.057 6  88729301.156 9  21303733.672 9
  21548464.297 7  21548463.742 9 115310185.358 7  89685705.467 9  21548464.359 9
  20453376.180 8  20453376.309 9 109411873.781 8  85098042.910 9  20453378.297 9
  19212357.234 7  19212355.707 8 102737210.458 7  79906644.865 8  19212356.242 8
 19  5 14 14 23  0.0000000  0 12G02G05G13G15G21G29R01R02R08R17R23R24
  22297476.516 6                 117174025.538 6  91304416.98848  22297472.52348
  20544171.867 7  20544168.934 9 107960349.017 7  84124936.959 9  20544168.93049
  21855333.391 6                 114850555.591 6  89493928.30748  21855330.65648
  22929926.063 6  22929924.910 9 120497573.981 6  93894208.409 9  22929924.43047
  24407227.375 4                 128260839.120 4  99943501.09346  24407223.69946
  20391786.102 7  20391784.531 9 107159556.891 7  83500944.510 9  20391783.77049
  19085113.492 7  19085113.809 9 102020865.173 7  79349567.434 9  19085115.523 9
  21537577.539 7  21537576.789 9 114928641.226 7  89388949.176 9  21537577.590 9
  21319938.258 6  21319937.094 9 114167306.468 6  88796793.912 9  21319937.906 9
  21525465.141 7  21525463.875 9 115187113.652 7  89589983.052 9  21525464.977 9
  20465042.695 8  20465043.305 9 109474283.784 8  85146583.997 9  20465045.090 9
  19205252.414 7  19205250.484 8 102699215.797 7  79877093.468 8  19205251.156 8
 19  5 14 14 23 30.0000000  0 12G02G05G13G15G21G29R01R02R08R17R23R24
  22305686.320 6                 117217169.846 6  91338035.91548  22305682.51648
  20550651.813 7  20550649.438 9 107994400.625 7  84151470.679 9  20550649.02349
  21837596.750 6                 114757350.058 6  89421300.63647  21837594.62547
  22905657.813 6  22905656.414 9 120370043.969 6  93794834.401 9  22905656.41847
  24389597.289 4                 128168197.678 4  99871312.97645  24389594.94145
  20386911.648 7  20386909.645 9 107133940.405 7  83480983.607 9  20386909.05949
  19084375.563 7  19084375.305 9 102016921.694 7  79346500.287 9  19084377.434 9
  21513753.531 7  21513753.648 9 114801515.277 7  89290073.467 9  21513754.328 9
  21336211.984 6  21336210.809 9 114254448.016 6  88864570.669 9  21336211.441 9
  21502509.125 7  21502507.516 9 115064267.237 7  89494435.866 9  21502508.336 9
  20476807.477 8  20476808.563 9 109537217.681 8  85195532.555 9  20476810.145 9
  19198265.297 7  19198263.258 8 102661852.489 7  79848033.126 8  19198263.707 8
 19  5 14 14 24  0.0000000  0 12G02G05G13G15G21G29R01R02R08R17R23R24
  22313944.141 6                 117260562.138 6  91371848.06848  22313940.09448
  20557200.672 7  20557198.418 9 108028817.409 7  84178288.943 9  20557198.21949
  21819944.875 6                 114664587.908 6  89349018.45647  21819941.89147
  22881430.625 6  22881428.672 9 120242729.245 6  93695628.160 9  22881428.56647
  24371974.148 4                 128075585.233 4  99799147.46445  24371971.48445
  20382152.930 7  20382150.914 9 107108934.688 7  83461498.642 9  20382150.53549
  19083773.289 7  19083772.969 9 102013699.270 7  79343993.969 9  19083774.656 9
  21490002.633 7  21490002.250 9 114674773.461 7  89191496.530 9  21490002.926 9
  21352549.094 6  21352547.398 9 114341930.168 6  88932612.333 9  21352548.223 9
  21479590.438 7  21479589.066 9 114941628.649 7  89399050.329 9  21479590.148 9
  20488666.148 8  20488666.668 9 109600653.693 8  85244871.649 9  20488668.320 9
  19191393.141 7  19191391.047 8 102625102.258 7  79819449.610 8  19191391.172 8
 19  5 14 14 24 30.0000000  0 12G02G05G13G15G21G29R01R02R08R17R23R24
  22322250.203 6                 117304208.446 6  91405858.15648  22322245.56348
  20563820.820 7  20563818.828 9 108063603.965 7  84205395.353 9  20563818.35949
  21802378.664 6                 114572278.539 6  89277089.09947  21802376.32447
  22857246.180 6  22857244.797 9 120115639.229 6  93596597.006 9  22857244.35547
  24354357.609 4                 127983009.049 4  99727010.20546  24354354.36346
  20377512.344 7  20377509.984 9 107084547.468 7  83442495.609 9  20377509.53949
  19083306.141 7  19083305.758 9 102011202.781 7  79342052.261 9  19083307.719 9
  21466326.023 7  21466324.281 9 114548424.923 7  89093225.467 9  21466325.488 9
  21368949.141 6  21368947.914 9 114429756.080 6  89000921.373 9  21368948.828 9
  21456713.781 7  21456711.680 9 114819207.545 7  89303833.936 9  21456712.824 9
  20500620.289 8  20500621.246 9 109664597.411 8  85294605.625 9  20500622.859 9
  19184636.828 7  19184635.117 8 102588973.715 7  79791349.634 8  19184635.145 8
 19  5 14 14 25  0.0000000  0 12G02G05G13G15G21G29R01R02R08R17R23R24
  22330602.992 6                 117348103.002 6  91440061.68648  22330598.05948
  20570509.281 7  20570507.207 9 108098752.470 7  84232783.794 9  20570506.64849
  21784898.375 6                 114480418.866 6  89205510.15047  21784896.17647
  22833103.633 6  22833102.602 9 119988770.565 6  93497738.339 9  22833102.10547
  24336746.328 4                 127890463.478 4  99654896.79746  24336744.08646
  20372988.609 7  20372986.418 9 107060773.437 7  83423970.391 9  20372985.91049
  19082973.102 7  19082972.699 9 102009424.254 7  79340668.972 9  19082974.395 9
  21442720.508 7  21442720.367 9 114422466.200 7  88995257.593 9  21442720.676 9
  21385413.672 6  21385410.691 9 114517915.758 6  89069489.992 9  21385411.805 9
  21433875.648 7  21433875.320 9 114697000.987 7  89208784.421 9  21433876.137 9
  20512666.891 8  20512668.301 9 109729041.165 8  85344728.526 9  20512669.777 9
  19177995.789 7  19177994.227 8 102553463.086 7  79763730.255 8  19177994.543 8
 19  5 14 14 25 30.0000000  0 12G02G05G13G15G21G29R01R02R08R17R23R24
  22339003.430 6                 117392249.013 6  91474461.14148  22338998.80948
  20577267.125 7  20577264.707 9 108134264.524 7  84260455.522 9  20577264.43049
  21767504.703 6                 114389014.871 6  89134286.27548  21767502.39148
  22809005.281 6  22809003.648 9 119862129.596 6  93399057.100 9  22809003.08647
  24319142.602 3                 127797952.202 3  99582810.13046  24319139.31646
  20368581.898 7  20368579.973 9 107037616.583 7  83405926.092 9  20368579.51249
  19082775.586 7  19082774.602 9 102008365.315 7  79339845.367 9  19082776.391 9
  21419190.109 7  21419190.051 9 114296903.112 7  88897597.428 9  21419190.445 9
  21401938.453 6  21401937.383 9 114606409.168 6  89138318.205 9  21401937.930 9
  21411081.031 7  21411078.664 9 114575015.244 7  89113906.636 9  21411079.773 9
  20524807.922 7  20524809.004 9 109793987.156 7  85395242.047 9  20524810.918 9
  19171471.617 7  19171470.336 8 102518575.125 7  79736595.172 8  19171470.000 8
 19  5 14 14 26  0.0000000  0 12G02G05G13G15G21G29R01R02R08R17R23R24
  22347452.266 6                 117436646.160 6  91509056.29448  22347447.38348
  20584093.563 7  20584091.254 9 108170138.030 7  84288408.904 9  20584091.02749
  21750198.117 6                 114298068.050 6  89063418.64047  21750195.51247
  22784950.125 6  22784948.207 9 119735718.978 6  93300555.365 9  22784947.65648
  24301544.211 4                 127705475.698 4  99510750.52546  24301541.77746
  20364293.016 7  20364290.703 9 107015077.718 7  83388363.340 9  20364290.32849
  19082711.016 7  19082711.250 9 102008024.056 7  79339579.950 9  19082712.719 9
  21395733.594 7  21395733.219 9 114171737.880 7  88800246.702 9  21395734.375 9
  21418526.344 6  21418523.223 9 114695232.357 6  89207402.890 9  21418524.230 9
  21388325.633 7  21388324.875 9 114453253.376 7  89019202.985 9  21388325.770 9
  20537042.359 7  20537043.613 9 109859433.772 7  85446144.949 9  20537045.313 9
  19165064.047 7  19165062.391 8 102484312.079 7  79709946.144 8  19165062.637 8
 19  5 14 14 26 30.0000000  0 12G02G05G13G15G21G29R01R02R08R17R23R24
  22355948.094 6                 117481293.107 6  91543846.10048  22355943.19548
  20590988.023 7  20590986.113 9 108206369.826 7  84316641.475 9  20590985.82849
  21732978.984 6                 114207580.685 6  88992909.01647  21732976.52047
  22760938.281 6  22760937.477 9 119609540.659 6  93202234.639 9  22760937.16847
  24283952.992 3                 127613033.065 3  99438717.32546  24283950.23846
  20360121.508 7  20360118.980 9 106993156.097 7  83371281.553 9  20360118.71149
  19082780.898 7  19082780.977 9 102008397.100 7  79339870.106 9  19082782.473 9
  21372352.016 7  21372352.203 9 114046971.222 7  88703205.987 9  21372353.082 9
  21435174.500 6  21435171.836 9 114784380.112 6  89276740.026 9  21435172.297 9
  21365613.891 7  21365612.719 9 114331717.051 7  88924674.750 9  21365613.531 9
  20549370.258 8  20549371.691 9 109925378.481 8  85497435.267 9  20549372.555 9
  19158773.734 7  19158772.254 8 102450674.589 7  79683783.647 8  19158772.723 8
 19  5 14 14 27  0.0000000  0 12G02G05G13G15G21G29R01R02R08R17R23R24
  22364492.758 6                 117526196.093 6  91578835.40648  22364488.02748
  20597951.727 7  20597949.758 9 108242964.935 7  84345157.145 9  20597949.39549
  21715848.820 6                 114117561.838 6  88922764.47748  21715846.54748
  22736974.242 6  22736972.508 9 119483603.669 6  93104101.957 9  22736971.85248
  24266369.492 4                 127520631.388 4  99366716.04746  24266366.89546
  20356068.594 7  20356066.367 9 106971858.634 7  83354686.125 9  20356066.02349
  19082985.664 7  19082985.238 9 102009489.618 7  79340719.850 9  19082986.953 9
  21349047.867 7  21349047.980 9 113922612.745 7  88606482.749 9  21349048.559 9
  21451882.148 6  21451880.156 9 114873855.732 6  89346332.184 9  21451880.953 9
  21342945.563 7  21342944.645 9 114210416.179 7  88830329.651 9  21342945.590 9
  20561791.758 8  20561792.867 9 109991826.753 8  85549117.238 9  20561794.535 9
  19152602.273 7  19152600.270 8 102417671.564 7  79658114.625 8  19152600.672 8
 19  5 14 14 27 30.0000000  0 12G02G05G13G15G21G29R01R02R08R17R23R24
  22373083.188 6                 117571338.850 6  91614011.55748  22373078.26248
  20604981.320 7  20604979.734 9 108279904.706 7  84373941.377 9  20604979.54349
  21698805.445 6                 114027997.689 6  88852974.25148  21698803.20348
  22713052.242 6  22713050.949 9 119357894.806 6  93006147.025 9  22713050.38348
  24248792.109 4                 127428254.676 4  99294734.24546  24248788.07046
  20352131.602 7  20352129.152 9 106951170.009 7  83338565.120 9  20352129.17249
  19083320.875 7  19083320.469 9 102011283.074 7  79342114.761 9  19083322.434 9
  21325817.016 7  21325816.367 9 113798648.333 7  88510066.001 9  21325817.309 9
  21468648.516 6  21468646.496 9 114963638.800 6  89416163.459 9  21468647.145 9
  21320318.977 7  21320318.773 9 114089337.262 7  88736157.190 9  21320319.223 9
  20574304.336 8  20574305.551 9 110058760.257 8  85601176.610 9  20574307.309 9
  19146546.852 7  19146543.703 8 102385288.016 7  79632927.418 8  19146544.621 8
 19  5 14 14 28  0.0000000  0 12G02G05G13G15G21G29R01R02R08R17R23R24
  22381720.961 6                 117616729.408 6  91649380.80448  22381716.12948
  20612077.539 7  20612075.281 9 108317195.504 7  84402999.143 9  20612074.89149
  21681850.672 6                 113938899.099 6  88783546.78648  21681847.92248
  22689176.188 6  22689174.664 9 119232424.354 6  92908377.876 9  22689174.23048
  24231218.766 3                 127335911.614 3  99222778.65246  24231215.93846
  20348312.156 7  20348310.266 9 106931098.465 7  83322924.954 9  20348309.84449
  19083788.422 7  19083788.984 9 102013783.430 7  79344059.484 9  19083790.449 9
  21302662.359 7  21302661.570 9 113675088.516 7  88413963.940 9  21302662.008 9
  21485473.031 6  21485471.453 9 115053733.621 6  89486237.206 9  21485472.141 9
  21297735.969 7  21297735.363 9 113968491.346 7  88642165.942 9  21297736.500 9
  20586909.102 8  20586910.422 9 110126185.886 8  85653618.756 9  20586911.934 9
  19140607.563 7  19140606.965 8 102353533.497 7  79608229.461 8  19140607.258 8
 19  5 14 14 28 30.0000000  0 12G02G05G13G15G21G29R01R02R08R17R23R24
  22390404.031 6                 117662362.330 6  91684938.89848  22390399.42248
  20619239.211 7  20619237.328 9 108354830.489 7  84432325.107 9  20619237.20349
  21664983.961 6                 113850263.843 6  88714480.37348  21664981.61748
  22665344.859 6  22665343.762 9 119107190.469 6  92810793.050 9  22665342.98048
  24213651.883 4                 127243597.533 4  99150845.65046  24213649.02746
  20344609.250 7  20344607.074 9 106911640.050 7  83307762.555 9  20344606.60949
  19084387.414 7  19084386.887 9 102016983.531 7  79346548.459 9  19084388.801 9
  21279581.484 7  21279581.742 9 113551930.393 7  88318174.316 9  21279582.586 9
  21502355.008 6  21502352.555 9 115144131.326 6  89556546.527 9  21502353.383 9
  21275196.172 7  21275195.676 9 113847876.521 7  88548354.435 9  21275196.262 9
  20599604.344 8  20599605.047 9 110194096.897 8  85706438.414 9  20599606.418 9
  19134787.109 7  19134784.695 8 102322405.151 7  79584018.524 8  19134784.891 8
 19  5 14 14 29  0.0000000  0 12G02G05G13G15G21G29R01R02R08R17R23R24
  22399133.242 6                 117708234.773 6  91720683.63648  22399128.56648
  20626465.422 7  20626463.508 9 108392804.817 7  84461915.492 9  20626463.08249
  21648205.469 6                 113762090.983 6  88645774.26948  21648203.21548
  22641558.914 6  22641556.832 9 118982193.516 6  92713392.857 9  22641556.54747
  24196089.656 3                 127151310.269 3  99078933.50646  24196087.44146
  20341022.555 7  20341020.629 9 106892792.018 7  83293075.772 9  20341020.20349
  19085116.297 7  19085115.980 9 102020878.967 7  79349578.246 9  19085117.805 9
  21256577.453 7  21256577.543 9 113429173.937 7  88222697.103 9  21256578.230 9
  21519290.414 6  21519288.977 9 115234825.712 6  89627086.600 9  21519290.086 9
  21252700.523 7  21252699.438 9 113727493.265 7  88454723.021 9  21252700.074 9
  20612389.914 8  20612390.164 9 110262489.141 8  85759632.366 9  20612391.984 9
  19129082.969 7  19129080.953 8 102291902.327 7  79560294.104 8  19129081.359 8
 19  5 14 14 29 30.0000000  0 12G02G05G13G15G21G29R01R02R08R17R23R24
  22407909.188 6                 117754351.855 6  91756619.01248  22407904.47348
  20633756.844 7  20633755.082 9 108431121.604 7  84491772.727 9  20633754.62549
  21631515.867 6                 113674388.663 6  88577434.81448  21631513.53148
  22617818.633 6  22617817.383 9 118857441.232 6  92616183.313 9  22617817.17248
  24178534.711 4                 127059055.618 4  99007046.80446  24178531.64846
  20337553.516 7  20337551.238 9 106874560.373 7  83278869.293 9  20337550.78149
  19085975.281 7  19085975.355 9 102025472.926 7  79353151.329 9  19085977.164 9
  21233649.008 7  21233649.531 9 113306826.535 7  88127538.044 9  21233650.656 9
  21536284.102 6  21536281.605 9 115325818.439 6  89697858.711 9  21536282.266 9
  21230247.859 7  21230247.309 9 113607350.134 7  88361278.394 9  21230248.059 9
  20625266.172 8  20625266.578 9 110331366.655 8  85813203.750 9  20625267.602 9
  19123496.883 7  19123495.000 8 102262031.938 7  79537061.576 8  19123495.785 8
 19  5 14 14 30  0.0000000  0 12G02G05G13G15G21G29R01R02R08R17R23R24
  22416732.648 6                 117800718.107 6  91792748.53648  22416727.21548
  20641114.188 7  20641112.031 9 108469784.195 7  84521899.427 9  20641111.60549
  21614917.688 6                 113587163.998 6  88509467.56448  21614915.50448
  22594127.195 6  22594126.082 9 118732941.133 6  92519170.286 9  22594125.75448
  24160986.188 4                 126966838.625 4  98935189.45445  24160983.25445
  20334202.039 7  20334199.836 9 106856950.530 7  83265147.331 9  20334199.62549
  19086965.492 8  19086965.695 9 102030768.011 8  79357269.730 9  19086967.602 9
  21210800.070 7  21210799.117 9 113184895.367 7  88032702.729 9  21210799.930 9
  21553331.820 6  21553329.289 9 115417110.400 6  89768863.560 9  21553330.004 9
  21207843.281 7  21207842.863 9 113487454.729 7  88268026.439 9  21207843.961 9
  20638232.953 7  20638232.836 9 110400732.502 7  85867154.948 9  20638234.805 8
  19118030.688 7  19118028.238 8 102232800.525 7  79514326.038 8  19118028.648 8
 19  5 14 14 30 30.0000000  0 12G02G05G13G15G21G29R01R02R08R17R23R24
  22425600.969 6                 117847321.131 6  91829062.55948  22425596.05948
  20648534.766 7  20648532.582 9 108508778.313 7  84552284.453 9  20648532.14149
  21598408.281 6                 113500407.462 6  88441865.08348  21598406.23448
  22570481.547 6  22570480.527 9 118608683.622 6  92422346.282 9  22570480.02748
  24143443.008 4                 126874647.454 4  98863352.19946  24143440.03946
  20330967.344 7  20330965.141 9 106839949.878 7  83251900.069 9  20330964.93049
  19088084.828 7  19088083.992 9 102036749.626 7  79361922.104 9  19088086.020 9
  21188025.586 7  21188025.750 9 113063370.145 7  87938183.146 9  21188026.426 9
  21570432.938 6  21570430.242 9 115508685.597 6  89840088.708 9  21570431.082 9
  21185482.789 7  21185481.508 9 113367797.607 7  88174959.810 9  21185482.125 9
  20651288.180 8  20651289.820 9 110470572.451 8  85921474.891 9  20651290.883 8
  19112681.141 7  19112679.547 8 102204197.243 7  79492079.039 8  19112679.938 8
 19  5 14 14 31  0.0000000  0 12G02G05G13G15G21G29R01R02R08R17R23R24
  22434513.984 6                 117894160.077 6  91865560.42448  22434509.15248
  20656017.563 7  20656015.363 9 108548101.792 7  84582926.129 9  20656015.07449
  21581988.570 6                 113414121.145 6  88374629.01948  21581986.35548
  22546882.930 6  22546881.902 9 118484671.421 6  92325713.442 9  22546881.36747
  24125904.094 4                 126782482.377 4  98791535.29746  24125901.35946
  20327848.172 7  20327846.172 9 106823559.160 7  83239128.086 9  20327845.77749
  19089331.992 8  19089331.785 9 102043415.387 8  79367106.595 9  19089333.645 9
  21165329.289 7  21165328.125 9 112942252.800 7  87843980.791 9  21165328.820 9
  21587585.086 6  21587583.492 9 115600539.667 6  89911530.762 9  21587584.082 9
  21163166.227 7  21163165.906 9 113248381.945 7  88082080.981 9  21163166.301 9
  20664432.492 8  20664433.992 9 110540884.960 8  85976162.377 9  20664435.031 9
  19107450.688 7  19107448.551 8 102176223.483 7  79470321.675 8  19107449.156 8
 19  5 14 14 31 30.0000000  0 12G02G05G13G15G21G29R01R02R08R17R23R24
  22443472.305 6                 117941238.246 6  91902244.70948  22443467.70348
  20663563.500 7  20663561.254 9 108587755.764 7  84613825.326 9  20663560.87149
  21565658.758 6                 113328310.764 6  88307763.79248  21565657.40248
  22523332.445 6  22523330.910 9 118360910.321 6  92229276.257 9  22523330.46147
  24108371.656 4                 126690346.774 4  98719741.33446  24108368.46546
  20324845.820 7  20324843.672 9 106807781.944 7  83226834.147 9  20324843.58649
  19090707.336 8  19090707.168 9 102050766.152 8  79372823.869 9  19090709.219 9
  21142708.453 7  21142708.605 9 112821549.229 7  87750100.270 9  21142709.121 9
  21604790.352 6  21604788.473 9 115692672.521 6  89983189.644 9  21604789.090 9
  21140897.164 7  21140895.910 9 113129213.942 7  87989394.773 9  21140896.801 9
  20677664.906 8  20677666.266 9 110611671.311 8  86031218.413 9  20677667.824 8
  19102338.320 7  19102335.410 8 102148884.293 7  79449057.856 8  19102335.953 8
 19  5 14 14 32  0.0000000  0 12G02G05G13G15G21G29R01R02R08R17R23R24
  22452475.883 6                 117988551.989 6  91939112.54148  22452471.25848
  20671171.211 7  20671169.520 9 108627734.930 7  84644977.925 9  20671169.12949
  21549420.305 6                 113242975.742 6  88241268.99148  21549418.36748
  22499827.930 6  22499827.660 9 118237399.775 6  92133034.314 9  22499827.12548
  24090843.422 4                 126598238.245 4  98647968.49246  24090841.34446
  20321959.633 7  20321957.742 9 106792615.447 7  83215016.101 9  20321957.44549
  19092208.953 7  19092209.027 9 102058796.570 7  79379069.756 9  19092211.020 9
  21120166.063 7  21120164.996 9 112701257.857 7  87656540.340 9  21120166.121 9
  21622047.438 6  21622044.141 9 115785077.126 6  90055059.889 9  21622044.984 9
  21118673.695 7  21118672.594 9 113010293.358 7  87896901.006 9  21118673.387 9
  20690986.414 8  20690987.066 9 110682926.443 8  86086639.058 9  20690988.395 8
  19097343.383 7  19097341.742 8 102122178.114 7  79428286.382 8  19097342.125 8
 19  5 14 14 32 30.0000000  0 12G02G05G13G15G21G29R01R02R08R17R23R24
  22461525.156 6                 118036107.909 6  91976169.08648  22461520.67648
  20678842.172 7  20678839.922 9 108668044.254 7  84676387.785 9  20678839.57849
  21533273.672 6                 113158124.640 6  88175151.26748  21533271.49248
  22476374.766 6  22476373.434 9 118114149.573 6  92036995.225 9  22476373.49248
  24073322.602 4                 126506163.886 4  98576222.28346  24073320.04346
  20319191.047 7  20319188.781 9 106778066.216 7  83203679.027 9  20319188.45749
  19093839.844 7  19093839.629 9 102067511.544 7  79385848.074 9  19093841.090 9
  21097702.914 7  21097703.148 9 112581388.470 7  87563308.624 9  21097703.566 9
  21639354.633 6  21639351.258 9 115877756.530 6  90127143.838 9  21639351.926 9
  21096498.969 7  21096497.883 9 112891630.534 7  87804607.719 9  21096498.680 9
  20704394.781 8  20704396.211 9 110754656.281 8  86142428.907 9  20704397.777 9
  19092469.469 7  19092467.918 8 102096113.345 7  79408013.782 8  19092467.543 8
 19  5 14 14 33  0.0000000  0 12G02G05G13G15G21G29R01R02R08R17R23R24
  22470618.500 6                 118083890.610 6  92013402.33647  22470613.62147
  20686572.086 7  20686569.992 9 108708666.882 7  84708041.778 9  20686569.77049
  21517216.883 6                 113073745.323 6  88109401.17048  21517215.02748
  22452967.789 6  22452966.727 9 117991147.694 6  91941149.635 9  22452966.48048
  24055804.969 4                 126414109.146 4  98504491.34046  24055802.05146
  20316537.359 7  20316535.340 9 106764120.398 7  83192812.151 9  20316534.93049
  19095594.492 7  19095594.738 9 102076893.403 7  79393145.079 9  19095596.285 9
  21075315.773 7  21075315.242 9 112461927.512 7  87470394.579 9  21075316.070 9
  21656709.375 6  21656706.121 9 115970692.385 6  90199427.265 9  21656707.176 9
  21074369.594 7  21074369.059 9 112773213.313 7  87712505.451 9  21074369.695 9
  20717889.836 8  20717891.008 9 110826843.637 8  86198574.627 9  20717892.375 9
  19087712.367 7  19087710.566 8 102070676.602 7  79388229.644 8  19087710.891 8
 19  5 14 14 33 30.0000000  0 12G02G05G13G15G21G29R01R02R08R17R23R24
  22479758.594 6                 118131922.469 6  92050829.75948  22479753.66048
  20694365.977 7  20694363.855 9 108749623.184 7  84739955.773 9  20694363.49248
  21501254.180 6                 112989862.228 6  88044037.74948  21501252.38748
  22429613.328 6  22429612.164 9 117868418.663 6  91845516.644 9  22429612.15648
  24038295.336 4                 126322096.936 4  98432793.52246  24038292.75846
  20314002.406 7  20313999.836 9 106750799.575 7  83182432.290 9  20313999.48049
  19097478.414 7  19097478.570 9 102086962.289 7  79400976.430 9  19097479.742 9
  21053010.523 7  21053009.582 9 112342900.504 7  87377818.039 9  21053010.430 9
  21674115.047 5  21674112.902 9 116063903.120 5  90271924.505 9  21674114.078 9
  21052291.375 7  21052290.273 9 112655067.298 7  87620614.138 9  21052291.246 9
  20731474.094 8  20731474.922 9 110899509.312 8  86255092.345 9  20731476.430 9
  19083077.195 7  19083075.605 8 102045891.873 7  79368952.640 8  19083076.129 8
 19  5 14 14 34  0.0000000  0 12G02G05G13G15G21G29R01R02R08R17R23R24
  22488943.930 6                 118180193.215 6  92088443.29447  22488939.49647
  20702221.063 7  20702219.055 9 108790901.499 7  84772120.705 9  20702218.56648
  21485385.563 6                 112906468.269 6  87979055.45148  21485383.26248
  22406310.008 6  22406308.281 9 117745955.892 6  91750091.143 9  22406308.18448
  24020792.680 5                 126230117.877 5  98361121.56046  24020789.65646
  20311584.578 7  20311582.461 9 106738094.593 7  83172532.299 9  20311582.14849
  19099488.227 7  19099488.246 9 102097706.223 7  79409332.836 9  19099489.672 9
  21030784.508 7  21030783.754 9 112224299.271 7  87285572.649 9  21030784.434 9
  21691569.945 6  21691567.895 9 116157375.530 6  90344625.253 9  21691568.508 9
  21030262.523 8  21030261.824 9 112537186.013 8  87528928.709 9  21030262.430 9
  20745144.414 8  20745146.184 9 110972641.898 8  86311973.242 9  20745148.211 8
  19078562.648 7  19078561.469 8 102021750.813 7  79350176.249 8  19078561.895 8
 19  5 14 14 34 30.0000000  0 12G02G05G13G15G21G29R01R02R08R17R23R24
  22498173.328 6                 118228693.991 6  92126236.09248  22498168.85548
  20710135.109 7  20710132.676 9 108832491.018 7  84804528.114 9  20710132.15248
  21469607.375 6                 112823556.733 6  87914449.08848  21469605.67648
  22383055.695 6  22383054.020 9 117623753.239 6  91654868.326 9  22383053.97348
  24003294.000 5                 126138163.885 5  98289469.10946  24003291.68446
  20309282.469 7  20309280.473 9 106725997.213 7  83163105.762 9  20309280.13349
  19101622.047 7  19101621.977 9 102109113.950 7  79418205.516 9  19101623.746 9
  21008636.547 8  21008636.836 9 112106117.051 8  87193653.163 9  21008637.531 9
  21709072.836 6  21709070.402 9 116251096.728 6  90417519.491 9  21709070.965 9
  21008282.281 7  21008280.730 9 112419563.739 7  87437444.743 9  21008281.621 9
  20758901.078 7  20758903.289 9 111046230.862 7  86369209.099 9  20758904.449 9
  19074167.672 7  19074166.715 8 101998246.258 7  79331894.928 8  19074166.793 8
 19  5 14 14 35  0.0000000  0 12G02G05G13G15G21G29R01R02R08R17R23R24
  22807238.133 6                 119852843.488 6  93391807.10648  22807233.71948
  21017900.656 7  21017898.617 9 110449809.600 7  86064776.360 9  21017898.28148
  21753715.898 6                 114316553.983 6  89077823.58548  21753713.27048
  22659644.156 7  22659643.168 9 119077238.180 7  92787454.021 9  22659642.60948
  24285594.180 5                 127621659.295 5  99445439.59946  24285591.69146
  20606889.297 7  20606886.539 9 108289928.777 7  84381753.730 9  20606886.34049
  19403672.133 8  19403672.145 9 103723746.038 8  80674030.468 9  19403673.926 9
  21286361.680 7  21286361.992 9 113588110.638 7  88346314.855 9  21286362.555 9
  22026411.695 6  22026409.414 9 117950436.147 6  91739227.948 9  22026410.219 9
  21286143.484 7  21286142.559 9 113906458.223 7  88593918.247 9  21286143.094 9
  21072535.234 7  21072536.313 9 112723960.251 7  87674109.729 9  21072538.316 8
  19369684.047 7  19369682.609 8 103578506.169 7  80560985.964 8  19369683.133 8
 19  5 14 14 35 30.0000000  0 12G02G05G13G15G21G29R01R02R08R17R23R24
  22816556.242 6                 119901808.234 6  93429961.43847  22816551.59047
  21025933.219 7  21025930.934 9 110492021.112 7  86097668.451 9  21025930.52049
  21738123.953 6                 114234619.636 6  89013978.65848  21738122.00448
  22636492.219 6  22636489.789 9 118955568.610 6  92692646.594 9  22636489.24648
  24268106.133 5                 127529761.507 5  99373830.94946  24268103.89546
  20604819.164 7  20604817.199 9 108279052.059 7  84373278.364 9  20604816.95749
  19406054.539 7  19406054.734 9 103736479.029 7  80683933.917 9  19406056.031 9
  21264374.336 8  21264374.039 9 113470777.966 8  88255056.138 9  21264374.777 9
  22044005.680 6  22044003.516 9 118044649.659 6  91812505.089 9  22044004.227 9
  21264263.305 7  21264261.676 9 113789368.301 7  88502848.342 9  21264262.273 9
  21086462.977 7  21086464.000 9 112798461.203 7  87732054.906 9  21086465.355 8
  19365528.453 7  19365526.828 8 103556283.854 7  80543701.948 8  19365526.773 8
 19  5 14 14 36  0.0000000  0 12G02G05G13G15G21G29R01R02R08R17R23R24
  22825918.633 6                 119951006.666 6  93468297.86047  22825914.53547
  21034024.680 7  21034022.691 9 110534542.665 7  86130802.128 9  21034022.29348
  21722626.109 6                 114153179.112 6  88950518.53148  21722624.39548
  22613390.742 6  22613388.688 9 118834171.960 6  92598051.821 9  22613388.28148
  24250625.461 5                 127437894.889 5  99302246.58846  24250621.75046
  20602865.789 7  20602863.477 9 108268787.473 7  84365279.983 9  20602863.34849
  19408560.156 7  19408559.414 9 103749873.152 7  80694351.564 9  19408561.340 9
  21242466.867 8  21242466.309 9 113353875.445 8  88164131.979 9  21242467.039 9
  22061644.523 6  22061641.805 9 118139105.811 6  91885971.019 9  22061642.785 9
  21242432.125 7  21242431.477 9 113672551.441 7  88411990.806 9  21242432.234 9
  21100474.797 7  21100475.453 9 112873417.644 7  87790354.350 9  21100477.227 8
  19361493.047 7  19361492.066 8 103534706.840 7  80526919.816 8  19361492.191 8
 19  5 14 14 36 30.0000000  0 12G02G05G13G15G21G29R01R02R08R17R23R24
  22835324.656 6                 120000440.318 6  93506817.58347  22835320.99647
  21042174.992 7  21042173.590 9 110577374.354 7  86164177.471 9  21042173.06648
  21707223.656 6                 114072237.310 6  88887447.01248  21707221.68448
  22590342.219 6  22590340.801 9 118713053.225 6  92503673.609 9  22590340.61348
  24233149.648 5                 127346061.839 5  99230688.41046  24233146.49246
  20601029.508 7  20601027.586 9 108259137.507 7  84357760.527 9  20601027.13349
  19411189.258 7  19411189.363 9 103763928.269 7  80705283.324 9  19411191.004 9
  21220640.945 8  21220640.035 9 113237407.569 8  88073545.869 9  21220640.992 9
  22079327.953 6  22079326.465 9 118233803.256 6  91959624.553 9  22079327.422 9
  21220654.281 7  21220653.930 9 113556013.205 7  88321349.979 9  21220654.547 9
  21114572.914 7  21114573.488 8 112948829.858 7  87849008.291 8  21114574.863 8
  19357579.734 7  19357578.406 8 103513778.781 7  80510642.434 8  19357578.605 8
 19  5 14 14 37  0.0000000  0 12G02G05G13G15G21G29R01R02R08R17R23R24
  22844774.281 5                 120050095.796 5  93545510.13947  22844770.19547
  21050382.141 7  21050380.148 9 110620501.238 7  86197782.829 9  21050379.55548
  21691913.711 6                 113991782.942 6  88824755.32048  21691911.74648
  22567345.383 7  22567343.086 9 118592201.595 7  92409503.549 9  22567342.87948
  24215678.016 5                 127254249.558 5  99159146.39346  24215675.24246
  20599308.125 7  20599305.648 9 108250089.206 7  84350709.897 9  20599305.54349
  19413938.945 7  19413938.629 9 103778628.271 7  80716716.666 9  19413940.500 9
  21198893.219 8  21198893.551 9 113121362.622 8  87983288.706 9  21198894.160 9
  22097054.102 5  22097051.859 9 118328724.685 5  92033452.360 9  22097052.617 9
  21198926.703 7  21198926.125 9 113439743.140 7  88230917.733 9  21198927.027 9
  21128752.477 7  21128753.668 8 113024682.857 7  87908005.050 8  21128755.230 8
  19353785.250 7  19353783.816 8 103493487.799 7  80494860.559 8  19353784.191 8
 19  5 14 14 37 30.0000000  0 12G02G05G13G15G21G29R01R02R08R17R23R24
  22854268.070 5                 120099986.636 5  93584386.11548  22854264.56348
  21058647.320 7  21058645.500 9 110663934.823 7  86231627.179 9  21058645.06648
  21676699.531 6                 113911831.866 6  88762455.79348  21676697.33248
  22544402.141 7  22544399.840 9 118471633.496 7  92315554.415 9  22544399.18448
  24198213.875 5                 127162472.314 5  99087631.69446  24198210.71546
  20597703.234 7  20597700.840 9 108241656.174 7  84344138.699 9  20597700.41049
  19416812.117 7  19416812.480 9 103793984.623 7  80728660.498 9  19416813.793 9
  21177229.164 8  21177228.332 9 113005756.610 8  87893372.941 9  21177229.461 9
  22114824.023 6  22114821.758 9 118423880.593 6  92107462.486 9  22114823.000 9
  21177252.352 7  21177251.492 9 113323758.401 7  88140707.402 9  21177252.371 9
  21143017.641 7  21143017.930 9 113100988.410 7  87967353.802 9  21143019.484 8
  19350112.883 7  19350111.676 8 103473849.171 7  80479586.071 8  19350111.723 8
 19  5 14 14 38  0.0000000  0 12G02G05G13G15G21G29R01R02R08R17R23R24
  22863807.664 6                 120150113.199 6  93623445.75847  22863803.40247
  21066970.648 7  21066968.332 9 110707674.143 7  86265709.760 9  21066967.93448
  21661581.438 6                 113832387.146 6  88700550.84148  21661579.72748
  22521513.211 7  22521511.281 9 118351352.628 7  92221829.083 9  22521510.75048
  24180755.336 5                 127070731.371 5  99016145.27546  24180753.12946
  20596215.531 7  20596212.711 9 108233839.104 7  84338047.475 9  20596212.52349
  19419806.367 8  19419806.848 9 103809995.716 8  80741113.575 9  19419808.484 9
  21155647.359 8  21155646.855 9 112890592.724 8  87803801.044 9  21155647.523 9
  22132636.672 5  22132634.141 9 118519268.262 5  92181652.888 9  22132635.477 9
  21155631.805 7  21155630.523 9 113208063.250 7  88050722.316 9  21155631.668 9
  21157366.289 7  21157367.703 9 113177745.631 7  88027053.832 9  21157368.906 8
  19346562.328 7  19346562.258 8 103454864.864 7  80464820.493 8  19346561.660 8
 19  5 14 14 38 30.0000000  0 12G02G05G13G15G21G29R01R02R08R17R23R24
  22873390.414 5                 120200471.628 5  93662686.07947  22873386.31647
  21075350.953 7  21075348.844 9 110751713.570 7  86300026.191 9  21075348.30548
  21646560.227 6                 113753447.709 6  88639039.61548  21646557.66048
  22498679.078 7  22498677.176 9 118231358.002 7  92128326.794 9  22498676.57848
  24163304.164 5                 126979023.966 5  98944684.99346  24163301.55946
  20594844.563 7  20594842.605 9 108226634.903 7  84332433.802 9  20594842.29349
  19422923.406 7  19422923.230 9 103826655.181 7  80754070.944 9  19422924.801 9
  21134148.109 8  21134147.984 9 112775869.063 8  87714571.555 9  21134148.852 9
  22150491.977 5  22150489.980 9 118614880.434 5  92256017.937 9  22150490.273 9
  21134065.305 7  21134064.230 9 113092657.072 7  87960961.972 9  21134065.086 9
  21171798.305 7  21171799.309 9 113254949.097 7  88087100.963 9  21171801.008 8
  19343134.203 7  19343132.828 8 103436532.923 7  80450562.313 8  19343132.891 8
 19  5 14 14 39  0.0000000  0 12G02G05G13G15G21G29R01R02R08R17R23R24
  22883018.469 6                 120251067.123 6  93702111.11848  22883014.24648
  21083789.070 7  21083787.004 9 110796056.723 7  86334579.300 9  21083786.34048
  21631635.672 6                 113675020.849 6  88577927.79748  21631633.70748
  22475900.914 7  22475898.848 9 118111657.939 7  92035054.043 9  22475898.41448
  24145861.008 5                 126887355.841 5  98873255.31346  24145858.19946
  20593591.141 7  20593588.797 9 108220048.334 7  84327301.407 9  20593588.53149
  19426161.789 7  19426161.910 9 103843966.126 7  80767535.018 9  19426163.453 9
  21112732.875 8  21112732.547 9 112661593.229 8  87625690.373 9  21112733.363 9
  22168389.820 5  22168387.125 9 118710719.437 5  92330559.336 9  22168388.652 9
  21112554.828 7  21112553.871 9 112977548.896 7  87871433.416 9  21112554.832 9
  21186315.180 7  21186315.824 9 113332602.310 7  88147497.891 9  21186317.863 8
  19339828.438 7  19339827.512 8 103418860.090 7  80436816.772 8  19339827.883 8
 19  5 14 14 39 30.0000000  0 12G02G05G13G15G21G29R01R02R08R17R23R24
  22892690.859 6                 120301892.858 6  93741715.57148  22892686.23448
  21092283.758 7  21092281.418 9 110840695.386 7  86369362.675 9  21092281.18848
  21616808.578 6                 113597102.798 6  88517212.44348  21616805.99248
  22453178.117 7  22453175.906 9 117992248.467 7  91942007.715 9  22453175.20348
  24128423.273 5                 126795721.274 5  98801851.79146  24128420.14146
  20592454.016 7  20592451.473 9 108214073.413 7  84322645.611 9  20592451.27049
  19429520.391 7  19429520.879 9 103861919.599 7  80781498.832 9  19429522.547 9
  21091401.125 8  21091400.012 9 112547760.748 8  87537154.020 9  21091400.633 9
  22186327.141 5  22186324.188 9 118806774.699 5  92405268.960 9  22186324.641 9
  21091099.359 8  21091098.410 9 112862735.390 8  87782134.038 9  21091099.176 9
  21200913.500 7  21200914.574 9 113410696.713 7  88208237.961 9  21200916.238 8
  19336646.406 7  19336645.574 8 103401840.831 7  80423579.555 8  19336645.875 8
 19  5 14 14 40  0.0000000  0 12G02G05G13G15G21G29R01R02R08R17R23R24
  22902407.773 6                 120352956.686 6  93781505.55848  22902403.40248
  21100835.531 7  21100833.844 9 110885635.807 7  86404381.184 9  21100833.33248
  21602079.922 6                 113519703.328 6  88456901.18448  21602077.54348
  22430512.648 7  22430510.797 9 117873140.697 7  91849196.491 9  22430510.33648
  24110993.727 5                 126704128.836 5  98730481.08446  24110991.10946
  20591435.109 7  20591433.129 9 108208717.918 7  84318472.494 9  20591432.77049
  19433001.094 7  19432999.984 9 103880521.044 7  80795966.630 9  19433001.758 9
  21070153.922 8  21070153.707 9 112434382.175 8  87448970.714 9  21070154.297 9
  22204305.258 5  22204303.758 9 118903051.213 5  92480150.745 9  22204303.813 9
  21069700.398 8  21069699.484 9 112748227.978 8  87693072.746 9  21069700.488 9
  21215596.102 7  21215597.629 9 113489238.922 7  88269326.326 9  21215599.395 8
  19333588.211 7  19333586.371 8 103385484.975 7  80410858.329 8  19333587.301 8
 19  5 14 14 40 30.0000000  0 12G02G05G13G15G21G29R01R02R08R17R23R24
  22912168.258 6                 120404248.750 6  93821473.38648  22912164.57848
  21109443.055 7  21109440.430 9 110930866.709 7  86439626.041 9  21109440.19548
  21587448.492 6                 113442815.228 6  88396988.39548  21587445.96148
  22407902.445 7  22407900.969 9 117754327.719 7  91756614.980 9  22407900.57448
  24093570.688 4                 126612569.886 4  98659136.48346  24093567.71546
  20590532.031 7  20590529.941 9 108203973.103 7  84314775.230 9  20590529.53949
  19436599.180 7  19436598.145 9 103899758.338 7  80810928.971 9  19436600.070 9
  21048989.867 8  21048989.930 9 112321449.705 8  87361134.374 9  21048990.875 9
  22222321.219 5  22222321.848 9 118999535.797 5  92555194.331 9  22222322.637 9
  21048358.461 8  21048357.137 9 112634020.705 8  87604244.888 9  21048357.730 9
  21230360.797 7  21230362.520 9 113568217.755 7  88330754.294 9  21230363.332 8
  19330652.031 7  19330649.594 8 103369784.173 7  80398646.584 8  19330650.477 8
 19  5 14 14 41  0.0000000  0 12G02G05G13G15G21G29R01R02R08R17R23R24
  22921971.883 6                 120455767.157 6  93861617.58848  22921967.87148
  21118104.242 7  21118101.934 9 110976384.138 7  86475094.168 9  21118101.64548
